[
{"sale_date": "2018-05-31 10:30:00", "sale_time": "10:30 AM", "file_number": "38-974", "case_number": "16 CH 16574", "firm_name": "McCalla Raymer Leibert Pierce, LLC", "address": "10722 SOUTH VERNON AVENUE", "city": "CHICAGO", "county": "Cook", "zip_code": "60628", "opening_bid": "83200.00", "required_down": "25", "sale_amount": "83300.00", "continuance": "", "sold_to": "Third Party Bidder", "last_updated": "2018-05-31 13:31:45.350995", "address_components": "10722 SOUTH VERNON AVENUE,CHICAGO,60628,IL", "geocode_result": {"address": "10722 South Vernon Avenue, Chicago, Illinois 60628, United States", "city": "Chicago", "country": "United States", "housenumber": "10722", "lat": 41.699265, "lng": -87.612679, "ok": true, "postal": "60628", "quality": 0.875, "raw": {"id": "address.8634251255694952", "type": "Feature", "place_type": ["address"], "relevance": 0.875, "properties": {}, "text": "South Vernon Avenue", "place_name": "10722 South Vernon Avenue, Chicago, Illinois 60628, United States", "center": [-87.612679, 41.699265], "geometry": {"type": "Point", "coordinates": [-87.612679, 41.699265]}, "address": "10722", "context": [{"id": "neighborhood.296114", "text": "Roseland"}, {"id": "postcode.12591952237139340", "text": "60628"}, {"id": "place.1924128844701850", "wikidata": "Q1297", "text": "Chicago"}, {"id": "region.224711", "short_code": "US-IL", "wikidata": "Q1204", "text": "Illinois"}, {"id": "country.3145", "short_code": "us", "wikidata": "Q30", "text": "United States"}], "neighborhood": "Roseland", "postcode": "60628", "place": "Chicago", "region": "Illinois", "country": "United States"}, "state": "Illinois", "status": "OK"}, "geocode_url": "https://api.mapbox.com/geocoding/v5/mapbox.places/10722%20SOUTH%20VERNON%20AVENUE,CHICAGO,60628,IL.json?access_token=pk.eyJ1IjoiZWFzaGVybWEiLCJhIjoiY2oxcW51Nzk2MDBkbTJxcGUxdm85bW5xayJ9.7mL0wQ7cjifWwt5DrXMuJA", "geocoded_address": "10722 South Vernon Avenue, Chicago, Illinois 60628, United States"},
{"sale_date": "2018-05-31 10:30:00", "sale_time": "10:30 AM", "file_number": "38-975", "case_number": "17 CH 00765", "firm_name": "McCalla Raymer Leibert Pierce, LLC", "address": "4538 SOUTH PAULINA STREET", "city": "CHICAGO", "county": "Cook", "zip_code": "60609", "opening_bid": "77000.00", "required_down": "25", "sale_amount": "77000.00", "continuance": "", "sold_to": "Plaintiff", "last_updated": "2018-05-31 13:31:45.470994", "address_components": "4538 SOUTH PAULINA STREET,CHICAGO,60609,IL", "geocode_result": {"address": "4538 South Paulina Street, Chicago, Illinois 60609, United States", "city": "Chicago", "country": "United States", "housenumber": "4538", "lat": 41.811037, "lng": -87.667822, "ok": true, "postal": "60609", "quality": 0.875, "raw": {"id": "address.6702148331219764", "type": "Feature", "place_type": ["address"], "relevance": 0.875, "properties": {}, "text": "South Paulina Street", "place_name": "4538 South Paulina Street, Chicago, Illinois 60609, United States", "center": [-87.667822, 41.811037], "geometry": {"type": "Point", "coordinates": [-87.667822, 41.811037]}, "address": "4538", "context": [{"id": "neighborhood.298312", "text": "Back of the Yards"}, {"id": "postcode.8798058502624550", "text": "60609"}, {"id": "place.1924128844701850", "wikidata": "Q1297", "text": "Chicago"}, {"id": "region.224711", "short_code": "US-IL", "wikidata": "Q1204", "text": "Illinois"}, {"id": "country.3145", "short_code": "us", "wikidata": "Q30", "text": "United States"}], "neighborhood": "Back of the Yards", "postcode": "60609", "place": "Chicago", "region": "Illinois", "country": "United States"}, "state": "Illinois", "status": "OK"}, "geocode_url": "https://api.mapbox.com/geocoding/v5/mapbox.places/4538%20SOUTH%20PAULINA%20STREET,CHICAGO,60609,IL.json?access_token=pk.eyJ1IjoiZWFzaGVybWEiLCJhIjoiY2oxcW51Nzk2MDBkbTJxcGUxdm85bW5xayJ9.7mL0wQ7cjifWwt5DrXMuJA", "geocoded_address": "4538 South Paulina Street, Chicago, Illinois 60609, United States"},
{"sale_date": "2018-05-31 10:30:00", "sale_time": "10:30 AM", "file_number": "38-1178", "case_number": "17 CH 14314", "firm_name": "LAW OFFICES OF IRA T. NEVEL, LLC", "address": "5129 W. CRYSTAL ST.", "city": "CHICAGO", "county": "Cook", "zip_code": "60651", "opening_bid": "119600.00", "required_down": "25", "sale_amount": "119600.00", "continuance": "", "sold_to": "Plaintiff", "last_updated": "2018-05-31 13:31:46.049996", "address_components": "5129 W. CRYSTAL ST.,CHICAGO,60651,IL", "geocode_result": {"address": "5129 West Crystal Street, Chicago, Illinois 60651, United States", "city": "Chicago", "country": "United States", "housenumber": "5129", "lat": 41.902965, "lng": -87.754514, "ok": true, "postal": "60651", "quality": 0.875, "raw": {"id": "address.7050270402849698", "type": "Feature", "place_type": ["address"], "relevance": 0.875, "properties": {}, "text": "West Crystal Street", "place_name": "5129 West Crystal Street, Chicago, Illinois 60651, United States", "center": [-87.754514, 41.902965], "geometry": {"type": "Point", "coordinates": [-87.754514, 41.902965]}, "address": "5129", "context": [{"id": "neighborhood.298344", "text": "North Austin"}, {"id": "postcode.13859496646724360", "text": "60651"}, {"id": "place.1924128844701850", "wikidata": "Q1297", "text": "Chicago"}, {"id": "region.224711", "short_code": "US-IL", "wikidata": "Q1204", "text": "Illinois"}, {"id": "country.3145", "short_code": "us", "wikidata": "Q30", "text": "United States"}], "neighborhood": "North Austin", "postcode": "60651", "place": "Chicago", "region": "Illinois", "country": "United States"}, "state": "Illinois", "status": "OK"}, "geocode_url": "https://api.mapbox.com/geocoding/v5/mapbox.places/5129%20W.%20CRYSTAL%20ST.,CHICAGO,60651,IL.json?access_token=pk.eyJ1IjoiZWFzaGVybWEiLCJhIjoiY2oxcW51Nzk2MDBkbTJxcGUxdm85bW5xayJ9.7mL0wQ7cjifWwt5DrXMuJA", "geocoded_address": "5129 West Crystal Street, Chicago, Illinois 60651, United States"},
{"sale_date": "2018-05-31 10:30:00", "sale_time": "10:30 AM", "file_number": "38-2257", "case_number": "14 CH 008915", "firm_name": "CODILIS & ASSOCIATES, P.C.", "address": "6315 S. LACROSSE AVENUE", "city": "CHICAGO", "county": "Cook", "zip_code": "60638", "opening_bid": "152800.00", "required_down": "25", "sale_amount": "152900.00", "continuance": "", "sold_to": "Third Party Bidder", "last_updated": "2018-05-31 13:31:46.456995", "address_components": "6315 S. LACROSSE AVENUE,CHICAGO,60638,IL", "geocode_result": {"accuracy": "ROOFTOP", "address": "6315 S La Crosse Ave, Chicago, IL 60638, USA", "bbox": {"northeast": [41.77924798029149, -87.74186111970849], "southwest": [41.77655001970849, -87.7445590802915]}, "city": "Chicago", "confidence": 9, "country": "US", "county": "Cook County", "housenumber": "6315", "lat": 41.7779051, "lng": -87.7432111, "neighborhood": "South Side", "ok": true, "place": "ChIJ88XmjP0wDogRJEgcFweZAr0", "postal": "60638", "quality": "premise", "raw": {"address_components": [{"long_name": "6315", "short_name": "6315", "types": ["street_number"]}, {"long_name": "South La Crosse Avenue", "short_name": "S La Crosse Ave", "types": ["route"]}, {"long_name": "South Side", "short_name": "South Side", "types": ["neighborhood", "political"]}, {"long_name": "Chicago", "short_name": "Chicago", "types": ["locality", "political"]}, {"long_name": "Cook County", "short_name": "Cook County", "types": ["administrative_area_level_2", "political"]}, {"long_name": "Illinois", "short_name": "IL", "types": ["administrative_area_level_1", "political"]}, {"long_name": "United States", "short_name": "US", "types": ["country", "political"]}, {"long_name": "60638", "short_name": "60638", "types": ["postal_code"]}, {"long_name": "5817", "short_name": "5817", "types": ["postal_code_suffix"]}], "formatted_address": "6315 S La Crosse Ave, Chicago, IL 60638, USA", "geometry": {"bounds": {"northeast": {"lat": 41.7779282, "lng": -87.74310659999999}, "southwest": {"lat": 41.7778698, "lng": -87.7433136}}, "location": {"lat": 41.7779051, "lng": -87.7432111}, "location_type": "ROOFTOP", "viewport": {"northeast": {"lat": 41.77924798029149, "lng": -87.74186111970849}, "southwest": {"lat": 41.77655001970849, "lng": -87.7445590802915}}}, "partial_match": true, "place_id": "ChIJ88XmjP0wDogRJEgcFweZAr0", "types": ["premise"], "street_number": {"long_name": "6315", "short_name": "6315"}, "route": {"long_name": "South La Crosse Avenue", "short_name": "S La Crosse Ave"}, "neighborhood": {"long_name": "South Side", "short_name": "South Side"}, "political": {"long_name": "United States", "short_name": "US"}, "locality": {"long_name": "Chicago", "short_name": "Chicago"}, "administrative_area_level_2": {"long_name": "Cook County", "short_name": "Cook County"}, "administrative_area_level_1": {"long_name": "Illinois", "short_name": "IL"}, "country": {"long_name": "United States", "short_name": "US"}, "postal_code": {"long_name": "60638", "short_name": "60638"}, "postal_code_suffix": {"long_name": "5817", "short_name": "5817"}}, "state": "IL", "status": "OK", "street": "S La Crosse Ave"}, "geocode_url": "https://maps.googleapis.com/maps/api/geocode/json?address=6315+S.+LACROSSE+AVENUE%2CCHICAGO%2C60638%2CIL&bounds=&components=&region=&language=&key=AIzaSyBi7dtBuJ0sCzUEz8dhIRnOteUVeKWkCvE", "geocoded_address": "6315 S La Crosse Ave, Chicago, IL 60638, USA"},
{"sale_date": "2018-05-31 10:30:00", "sale_time": "10:30 AM", "file_number": "38-1854", "case_number": "2017 CH 12629", "firm_name": "CODILIS & ASSOCIATES, P.C.", "address": "6940 WEST 65TH STREET UNIT 2C", "city": "CHICAGO", "county": "Cook", "zip_code": "60638", "opening_bid": "59160.00", "required_down": "25", "sale_amount": "59260.00", "continuance": "", "sold_to": "Third Party Bidder", "last_updated": "2018-05-31 13:31:47.592995", "address_components": "6940 WEST 65TH STREET UNIT 2C,CHICAGO,60638,IL", "geocode_result": {"accuracy": "ROOFTOP", "address": "6940 W 65th St #2c, Chicago, IL 60638, USA", "bbox": {"northeast": [41.77544598029151, -87.7935750197085], "southwest": [41.77274801970851, -87.7962729802915]}, "city": "Chicago", "confidence": 9, "country": "US", "county": "Cook County", "housenumber": "6940", "lat": 41.774097, "lng": -87.794924, "neighborhood": "Clearing", "ok": true, "place": "Eio2OTQwIFcgNjV0aCBTdCAjMmMsIENoaWNhZ28sIElMIDYwNjM4LCBVU0EiHhocChYKFAoSCTOwKR8iNw6IEfzHibnmv4_qEgIyYw", "postal": "60638", "quality": "subpremise", "raw": {"address_components": [{"long_name": "2c", "short_name": "2c", "types": ["subpremise"]}, {"long_name": "6940", "short_name": "6940", "types": ["street_number"]}, {"long_name": "West 65th Street", "short_name": "W 65th St", "types": ["route"]}, {"long_name": "Clearing", "short_name": "Clearing", "types": ["neighborhood", "political"]}, {"long_name": "Chicago", "short_name": "Chicago", "types": ["locality", "political"]}, {"long_name": "Cook County", "short_name": "Cook County", "types": ["administrative_area_level_2", "political"]}, {"long_name": "Illinois", "short_name": "IL", "types": ["administrative_area_level_1", "political"]}, {"long_name": "United States", "short_name": "US", "types": ["country", "political"]}, {"long_name": "60638", "short_name": "60638", "types": ["postal_code"]}], "formatted_address": "6940 W 65th St #2c, Chicago, IL 60638, USA", "geometry": {"location": {"lat": 41.774097, "lng": -87.794924}, "location_type": "ROOFTOP", "viewport": {"northeast": {"lat": 41.77544598029151, "lng": -87.7935750197085}, "southwest": {"lat": 41.77274801970851, "lng": -87.7962729802915}}}, "partial_match": true, "place_id": "Eio2OTQwIFcgNjV0aCBTdCAjMmMsIENoaWNhZ28sIElMIDYwNjM4LCBVU0EiHhocChYKFAoSCTOwKR8iNw6IEfzHibnmv4_qEgIyYw", "types": ["subpremise"], "subpremise": {"long_name": "2c", "short_name": "2c"}, "street_number": {"long_name": "6940", "short_name": "6940"}, "route": {"long_name": "West 65th Street", "short_name": "W 65th St"}, "neighborhood": {"long_name": "Clearing", "short_name": "Clearing"}, "political": {"long_name": "United States", "short_name": "US"}, "locality": {"long_name": "Chicago", "short_name": "Chicago"}, "administrative_area_level_2": {"long_name": "Cook County", "short_name": "Cook County"}, "administrative_area_level_1": {"long_name": "Illinois", "short_name": "IL"}, "country": {"long_name": "United States", "short_name": "US"}, "postal_code": {"long_name": "60638", "short_name": "60638"}}, "state": "IL", "status": "OK", "street": "W 65th St", "subpremise": "2c"}, "geocode_url": "https://maps.googleapis.com/maps/api/geocode/json?address=6940+WEST+65TH+STREET+UNIT+2C%2CCHICAGO%2C60638%2CIL&bounds=&components=&region=&language=&key=AIzaSyBi7dtBuJ0sCzUEz8dhIRnOteUVeKWkCvE", "geocoded_address": "6940 W 65th St #2c, Chicago, IL 60638, USA"}
][
{"sale_date": "2018-05-31 10:30:00", "sale_time": "10:30 AM", "file_number": "38-974", "case_number": "16 CH 16574", "firm_name": "McCalla Raymer Leibert Pierce, LLC", "address": "10722 SOUTH VERNON AVENUE", "city": "CHICAGO", "county": "Cook", "zip_code": "60628", "opening_bid": "83200.00", "required_down": "25", "sale_amount": "83300.00", "continuance": "", "sold_to": "Third Party Bidder", "last_updated": "2018-05-31 13:33:54.436010", "address_components": "10722 SOUTH VERNON AVENUE,CHICAGO,60628,IL", "geocode_result": {"address": "10722 South Vernon Avenue, Chicago, Illinois 60628, United States", "city": "Chicago", "country": "United States", "housenumber": "10722", "lat": 41.699265, "lng": -87.612679, "ok": true, "postal": "60628", "quality": 0.875, "raw": {"id": "address.8634251255694952", "type": "Feature", "place_type": ["address"], "relevance": 0.875, "properties": {}, "text": "South Vernon Avenue", "place_name": "10722 South Vernon Avenue, Chicago, Illinois 60628, United States", "center": [-87.612679, 41.699265], "geometry": {"type": "Point", "coordinates": [-87.612679, 41.699265]}, "address": "10722", "context": [{"id": "neighborhood.296114", "text": "Roseland"}, {"id": "postcode.12591952237139340", "text": "60628"}, {"id": "place.1924128844701850", "wikidata": "Q1297", "text": "Chicago"}, {"id": "region.224711", "short_code": "US-IL", "wikidata": "Q1204", "text": "Illinois"}, {"id": "country.3145", "short_code": "us", "wikidata": "Q30", "text": "United States"}], "neighborhood": "Roseland", "postcode": "60628", "place": "Chicago", "region": "Illinois", "country": "United States"}, "state": "Illinois", "status": "OK"}, "geocode_url": "https://api.mapbox.com/geocoding/v5/mapbox.places/10722%20SOUTH%20VERNON%20AVENUE,CHICAGO,60628,IL.json?access_token=pk.eyJ1IjoiZWFzaGVybWEiLCJhIjoiY2oxcW51Nzk2MDBkbTJxcGUxdm85bW5xayJ9.7mL0wQ7cjifWwt5DrXMuJA", "geocoded_address": "10722 South Vernon Avenue, Chicago, Illinois 60628, United States"},
{"sale_date": "2018-05-31 10:30:00", "sale_time": "10:30 AM", "file_number": "38-975", "case_number": "17 CH 00765", "firm_name": "McCalla Raymer Leibert Pierce, LLC", "address": "4538 SOUTH PAULINA STREET", "city": "CHICAGO", "county": "Cook", "zip_code": "60609", "opening_bid": "77000.00", "required_down": "25", "sale_amount": "77000.00", "continuance": "", "sold_to": "Plaintiff", "last_updated": "2018-05-31 13:33:54.567014", "address_components": "4538 SOUTH PAULINA STREET,CHICAGO,60609,IL", "geocode_result": {"address": "4538 South Paulina Street, Chicago, Illinois 60609, United States", "city": "Chicago", "country": "United States", "housenumber": "4538", "lat": 41.811037, "lng": -87.667822, "ok": true, "postal": "60609", "quality": 0.875, "raw": {"id": "address.6702148331219764", "type": "Feature", "place_type": ["address"], "relevance": 0.875, "properties": {}, "text": "South Paulina Street", "place_name": "4538 South Paulina Street, Chicago, Illinois 60609, United States", "center": [-87.667822, 41.811037], "geometry": {"type": "Point", "coordinates": [-87.667822, 41.811037]}, "address": "4538", "context": [{"id": "neighborhood.298312", "text": "Back of the Yards"}, {"id": "postcode.8798058502624550", "text": "60609"}, {"id": "place.1924128844701850", "wikidata": "Q1297", "text": "Chicago"}, {"id": "region.224711", "short_code": "US-IL", "wikidata": "Q1204", "text": "Illinois"}, {"id": "country.3145", "short_code": "us", "wikidata": "Q30", "text": "United States"}], "neighborhood": "Back of the Yards", "postcode": "60609", "place": "Chicago", "region": "Illinois", "country": "United States"}, "state": "Illinois", "status": "OK"}, "geocode_url": "https://api.mapbox.com/geocoding/v5/mapbox.places/4538%20SOUTH%20PAULINA%20STREET,CHICAGO,60609,IL.json?access_token=pk.eyJ1IjoiZWFzaGVybWEiLCJhIjoiY2oxcW51Nzk2MDBkbTJxcGUxdm85bW5xayJ9.7mL0wQ7cjifWwt5DrXMuJA", "geocoded_address": "4538 South Paulina Street, Chicago, Illinois 60609, United States"},
{"sale_date": "2018-05-31 10:30:00", "sale_time": "10:30 AM", "file_number": "38-1178", "case_number": "17 CH 14314", "firm_name": "LAW OFFICES OF IRA T. NEVEL, LLC", "address": "5129 W. CRYSTAL ST.", "city": "CHICAGO", "county": "Cook", "zip_code": "60651", "opening_bid": "119600.00", "required_down": "25", "sale_amount": "119600.00", "continuance": "", "sold_to": "Plaintiff", "last_updated": "2018-05-31 13:33:54.691010", "address_components": "5129 W. CRYSTAL ST.,CHICAGO,60651,IL", "geocode_result": {"address": "5129 West Crystal Street, Chicago, Illinois 60651, United States", "city": "Chicago", "country": "United States", "housenumber": "5129", "lat": 41.902965, "lng": -87.754514, "ok": true, "postal": "60651", "quality": 0.875, "raw": {"id": "address.7050270402849698", "type": "Feature", "place_type": ["address"], "relevance": 0.875, "properties": {}, "text": "West Crystal Street", "place_name": "5129 West Crystal Street, Chicago, Illinois 60651, United States", "center": [-87.754514, 41.902965], "geometry": {"type": "Point", "coordinates": [-87.754514, 41.902965]}, "address": "5129", "context": [{"id": "neighborhood.298344", "text": "North Austin"}, {"id": "postcode.13859496646724360", "text": "60651"}, {"id": "place.1924128844701850", "wikidata": "Q1297", "text": "Chicago"}, {"id": "region.224711", "short_code": "US-IL", "wikidata": "Q1204", "text": "Illinois"}, {"id": "country.3145", "short_code": "us", "wikidata": "Q30", "text": "United States"}], "neighborhood": "North Austin", "postcode": "60651", "place": "Chicago", "region": "Illinois", "country": "United States"}, "state": "Illinois", "status": "OK"}, "geocode_url": "https://api.mapbox.com/geocoding/v5/mapbox.places/5129%20W.%20CRYSTAL%20ST.,CHICAGO,60651,IL.json?access_token=pk.eyJ1IjoiZWFzaGVybWEiLCJhIjoiY2oxcW51Nzk2MDBkbTJxcGUxdm85bW5xayJ9.7mL0wQ7cjifWwt5DrXMuJA", "geocoded_address": "5129 West Crystal Street, Chicago, Illinois 60651, United States"},
{"sale_date": "2018-05-31 10:30:00", "sale_time": "10:30 AM", "file_number": "38-2257", "case_number": "14 CH 008915", "firm_name": "CODILIS & ASSOCIATES, P.C.", "address": "6315 S. LACROSSE AVENUE", "city": "CHICAGO", "county": "Cook", "zip_code": "60638", "opening_bid": "152800.00", "required_down": "25", "sale_amount": "152900.00", "continuance": "", "sold_to": "Third Party Bidder", "last_updated": "2018-05-31 13:33:54.797010", "address_components": "6315 S. LACROSSE AVENUE,CHICAGO,60638,IL", "geocode_result": {"accuracy": "ROOFTOP", "address": "6315 S La Crosse Ave, Chicago, IL 60638, USA", "bbox": {"northeast": [41.77924798029149, -87.74186111970849], "southwest": [41.77655001970849, -87.7445590802915]}, "city": "Chicago", "confidence": 9, "country": "US", "county": "Cook County", "housenumber": "6315", "lat": 41.7779051, "lng": -87.7432111, "neighborhood": "South Side", "ok": true, "place": "ChIJ88XmjP0wDogRJEgcFweZAr0", "postal": "60638", "quality": "premise", "raw": {"address_components": [{"long_name": "6315", "short_name": "6315", "types": ["street_number"]}, {"long_name": "South La Crosse Avenue", "short_name": "S La Crosse Ave", "types": ["route"]}, {"long_name": "South Side", "short_name": "South Side", "types": ["neighborhood", "political"]}, {"long_name": "Chicago", "short_name": "Chicago", "types": ["locality", "political"]}, {"long_name": "Cook County", "short_name": "Cook County", "types": ["administrative_area_level_2", "political"]}, {"long_name": "Illinois", "short_name": "IL", "types": ["administrative_area_level_1", "political"]}, {"long_name": "United States", "short_name": "US", "types": ["country", "political"]}, {"long_name": "60638", "short_name": "60638", "types": ["postal_code"]}, {"long_name": "5817", "short_name": "5817", "types": ["postal_code_suffix"]}], "formatted_address": "6315 S La Crosse Ave, Chicago, IL 60638, USA", "geometry": {"bounds": {"northeast": {"lat": 41.7779282, "lng": -87.74310659999999}, "southwest": {"lat": 41.7778698, "lng": -87.7433136}}, "location": {"lat": 41.7779051, "lng": -87.7432111}, "location_type": "ROOFTOP", "viewport": {"northeast": {"lat": 41.77924798029149, "lng": -87.74186111970849}, "southwest": {"lat": 41.77655001970849, "lng": -87.7445590802915}}}, "partial_match": true, "place_id": "ChIJ88XmjP0wDogRJEgcFweZAr0", "types": ["premise"], "street_number": {"long_name": "6315", "short_name": "6315"}, "route": {"long_name": "South La Crosse Avenue", "short_name": "S La Crosse Ave"}, "neighborhood": {"long_name": "South Side", "short_name": "South Side"}, "political": {"long_name": "United States", "short_name": "US"}, "locality": {"long_name": "Chicago", "short_name": "Chicago"}, "administrative_area_level_2": {"long_name": "Cook County", "short_name": "Cook County"}, "administrative_area_level_1": {"long_name": "Illinois", "short_name": "IL"}, "country": {"long_name": "United States", "short_name": "US"}, "postal_code": {"long_name": "60638", "short_name": "60638"}, "postal_code_suffix": {"long_name": "5817", "short_name": "5817"}}, "state": "IL", "status": "OK", "street": "S La Crosse Ave"}, "geocode_url": "https://maps.googleapis.com/maps/api/geocode/json?address=6315+S.+LACROSSE+AVENUE%2CCHICAGO%2C60638%2CIL&bounds=&components=&region=&language=&key=AIzaSyBi7dtBuJ0sCzUEz8dhIRnOteUVeKWkCvE", "geocoded_address": "6315 S La Crosse Ave, Chicago, IL 60638, USA"},
{"sale_date": "2018-05-31 10:30:00", "sale_time": "10:30 AM", "file_number": "38-1854", "case_number": "2017 CH 12629", "firm_name": "CODILIS & ASSOCIATES, P.C.", "address": "6940 WEST 65TH STREET UNIT 2C", "city": "CHICAGO", "county": "Cook", "zip_code": "60638", "opening_bid": "59160.00", "required_down": "25", "sale_amount": "59260.00", "continuance": "", "sold_to": "Third Party Bidder", "last_updated": "2018-05-31 13:33:55.044009", "address_components": "6940 WEST 65TH STREET UNIT 2C,CHICAGO,60638,IL", "geocode_result": {"accuracy": "ROOFTOP", "address": "6940 W 65th St #2c, Chicago, IL 60638, USA", "bbox": {"northeast": [41.77544598029151, -87.7935750197085], "southwest": [41.77274801970851, -87.7962729802915]}, "city": "Chicago", "confidence": 9, "country": "US", "county": "Cook County", "housenumber": "6940", "lat": 41.774097, "lng": -87.794924, "neighborhood": "Clearing", "ok": true, "place": "Eio2OTQwIFcgNjV0aCBTdCAjMmMsIENoaWNhZ28sIElMIDYwNjM4LCBVU0EiHhocChYKFAoSCTOwKR8iNw6IEfzHibnmv4_qEgIyYw", "postal": "60638", "quality": "subpremise", "raw": {"address_components": [{"long_name": "2c", "short_name": "2c", "types": ["subpremise"]}, {"long_name": "6940", "short_name": "6940", "types": ["street_number"]}, {"long_name": "West 65th Street", "short_name": "W 65th St", "types": ["route"]}, {"long_name": "Clearing", "short_name": "Clearing", "types": ["neighborhood", "political"]}, {"long_name": "Chicago", "short_name": "Chicago", "types": ["locality", "political"]}, {"long_name": "Cook County", "short_name": "Cook County", "types": ["administrative_area_level_2", "political"]}, {"long_name": "Illinois", "short_name": "IL", "types": ["administrative_area_level_1", "political"]}, {"long_name": "United States", "short_name": "US", "types": ["country", "political"]}, {"long_name": "60638", "short_name": "60638", "types": ["postal_code"]}], "formatted_address": "6940 W 65th St #2c, Chicago, IL 60638, USA", "geometry": {"location": {"lat": 41.774097, "lng": -87.794924}, "location_type": "ROOFTOP", "viewport": {"northeast": {"lat": 41.77544598029151, "lng": -87.7935750197085}, "southwest": {"lat": 41.77274801970851, "lng": -87.7962729802915}}}, "partial_match": true, "place_id": "Eio2OTQwIFcgNjV0aCBTdCAjMmMsIENoaWNhZ28sIElMIDYwNjM4LCBVU0EiHhocChYKFAoSCTOwKR8iNw6IEfzHibnmv4_qEgIyYw", "types": ["subpremise"], "subpremise": {"long_name": "2c", "short_name": "2c"}, "street_number": {"long_name": "6940", "short_name": "6940"}, "route": {"long_name": "West 65th Street", "short_name": "W 65th St"}, "neighborhood": {"long_name": "Clearing", "short_name": "Clearing"}, "political": {"long_name": "United States", "short_name": "US"}, "locality": {"long_name": "Chicago", "short_name": "Chicago"}, "administrative_area_level_2": {"long_name": "Cook County", "short_name": "Cook County"}, "administrative_area_level_1": {"long_name": "Illinois", "short_name": "IL"}, "country": {"long_name": "United States", "short_name": "US"}, "postal_code": {"long_name": "60638", "short_name": "60638"}}, "state": "IL", "status": "OK", "street": "W 65th St", "subpremise": "2c"}, "geocode_url": "https://maps.googleapis.com/maps/api/geocode/json?address=6940+WEST+65TH+STREET+UNIT+2C%2CCHICAGO%2C60638%2CIL&bounds=&components=&region=&language=&key=AIzaSyBi7dtBuJ0sCzUEz8dhIRnOteUVeKWkCvE", "geocoded_address": "6940 W 65th St #2c, Chicago, IL 60638, USA"}
]